{
  "type": "FeatureCollection",
  "features": [
    { "type": "Feature", "properties": { "id": "SUB-MA-WBS", "name": "Webster Telecom Yard", "operatingCompany": "Telecom NE Demo", "region": "Central Massachusetts", "voltageClass": "115 kV", "telecomRoom": "Room T1", "batteryPlant": "48 VDC A/B", "status": "active", "criticality": "critical" }, "geometry": { "type": "Point", "coordinates": [-71.88, 42.05] } },
    { "type": "Feature", "properties": { "id": "SUB-MA-AUB", "name": "Auburn Switching Station", "operatingCompany": "Telecom NE Demo", "region": "Central Massachusetts", "voltageClass": "115/230 kV", "telecomRoom": "Relay/Telecom", "batteryPlant": "125 VDC relay, 48 VDC telecom", "status": "active", "criticality": "critical" }, "geometry": { "type": "Point", "coordinates": [-71.84, 42.20] } },
    { "type": "Feature", "properties": { "id": "SUB-MA-BOS", "name": "Boston Control Telecom Hub", "operatingCompany": "Telecom NE Demo", "region": "Eastern Massachusetts", "voltageClass": "345 kV", "telecomRoom": "Network Core", "batteryPlant": "Dual 48 VDC", "status": "active", "criticality": "critical" }, "geometry": { "type": "Point", "coordinates": [-71.06, 42.36] } },
    { "type": "Feature", "properties": { "id": "SUB-RI-PVD", "name": "Providence Intertie", "operatingCompany": "Shared Utility Demo", "region": "Rhode Island", "voltageClass": "115 kV", "telecomRoom": "Telco bay", "batteryPlant": "48 VDC", "status": "active", "criticality": "high" }, "geometry": { "type": "Point", "coordinates": [-71.41, 41.82] } },
    { "type": "Feature", "properties": { "id": "SUB-CT-HFD", "name": "Hartford Telecom Hub", "operatingCompany": "Shared Utility Demo", "region": "Connecticut", "voltageClass": "345 kV", "telecomRoom": "Control house", "batteryPlant": "48 VDC A/B", "status": "active", "criticality": "critical" }, "geometry": { "type": "Point", "coordinates": [-72.67, 41.76] } },
    { "type": "Feature", "properties": { "id": "SUB-NH-MAN", "name": "Manchester North Ring", "operatingCompany": "Northern Demo Utility", "region": "New Hampshire", "voltageClass": "230 kV", "telecomRoom": "Telecom rack row", "batteryPlant": "48 VDC", "status": "maintenance", "criticality": "high" }, "geometry": { "type": "Point", "coordinates": [-71.45, 42.99] } },
    { "type": "Feature", "properties": { "id": "SUB-VT-RUT", "name": "Rutland Mountain Path", "operatingCompany": "Northern Demo Utility", "region": "Vermont", "voltageClass": "115 kV", "telecomRoom": "Remote shelter", "batteryPlant": "48 VDC compact", "status": "active", "criticality": "high" }, "geometry": { "type": "Point", "coordinates": [-72.97, 43.61] } },
    { "type": "Feature", "properties": { "id": "SUB-ME-POR", "name": "Portland Leased Backup Hub", "operatingCompany": "Telecom Provider Demo", "region": "Maine", "voltageClass": "115 kV", "telecomRoom": "Provider demarc", "batteryPlant": "48 VDC", "status": "active", "criticality": "high" }, "geometry": { "type": "Point", "coordinates": [-70.26, 43.66] } }
  ]
}
